{"pageProps":{"villages":[{"lat":"11.1977","province":"Cebu","association":"Bitoon Agrarian Reform Beneficiaries Association","municipality":"Daanbantayan","barangay":"Bagay","lon":"124.0252"},{"lat":"11.1977","province":"Cebu","municipality":"Daanbantayan","association":"Somimbang Farmers Association","barangay":"Bagay","lon":"124.0252"},{"lon":"124.0001","association":"Bagay Farmers Association","municipality":"Daanbantayan","barangay":"Bitoon","province":"Cebu","lat":"11.2326"},{"lon":"124.0001","barangay":"Bitoon","association":"Fatima-Bandilaan Farmer Association","municipality":"Daanbantayan","province":"Cebu","lat":"11.2326"},{"lat":"11.2326","province":"Cebu","barangay":"Bitoon","municipality":"Daanbantayan","association":"Nagkahiusang Mamumuong Kababayen-an sa Bagay","lon":"124.0001"},{"lat":"9.7837","province":"Cebu","barangay":"Mantalongon","municipality":"Dalaguete","association":"Mag-uuma sa Mantalongon nga Nagpakabana","lon":"123.5056"},{"lon":"123.5056","barangay":"Mantalongon","municipality":"Dalaguete","association":"Lahug-Mantalongon Farmers Association","province":"Cebu","lat":"9.7837"},{"lat":"9.7837","province":"Cebu","municipality":"Dalaguete","association":"Mantalongon Irrigators Association ","barangay":"Mantalongon","lon":"123.5056"},{"municipality":"Dalaguete","association":"Kapunungan sa Mag-uuma sa Sigpit","barangay":"Mantalongon","lon":"123.5056","lat":"9.7837","province":"Cebu"},{"lon":"123.5056","association":"Grandchina Vegetable Farmers Irrigators Association","municipality":"Dalaguete","barangay":"Mantalongon","province":"Cebu","lat":"9.7837"},{"municipality":"Dalaguete","association":"Suwa Mantalongon Farmers Association","barangay":"Mantalongon","lon":"123.5056","lat":"9.7837","province":"Cebu"},{"lat":"9.9475","province":"Bohol","barangay":"Taming","association":"Taming Agrarian Reform Community Farmers Association","municipality":"Danao","lon":"124.156"},{"province":"Bohol","lat":"9.9572","lon":"124.5348","barangay":"Paraiso","association":"Paraiso Pagtinabangay Farmers Association","municipality":"Mabini"},{"lon":"124.1727","barangay":"Buenos Aires","municipality":"Carmen","association":"Buenos Aires Farmers Association","province":"Bohol","lat":"9.7974"},{"province":"Negros Oriental","lat":"9.8518","lon":"122.9522","municipality":"Ayungon","association":"Egang Carol-an, Farmers Association","barangay":"Carol-an"},{"lat":"9.1051","province":"Negros Oriental","association":"Zamboanguita Farmers Irrigators Association","municipality":"Zamboanguita","barangay":"Mayabon","lon":"123.1745"},{"province":"Negros Oriental","lat":"9.1051","lon":"123.1745","barangay":"Mayabon","association":"Mangga Farmers Association","municipality":"Zamboanguita"},{"province":"Siquijor","lat":"9.1488","lon":"123.514","barangay":"Tubod","municipality":"San Juan","association":"Tubod Vegetable Growers Association"}],"provincesMunicipalities":[{"label":"Bohol","id":0,"municipalities":[{"disabled":false,"label":"Alburquerque","id":0},{"id":1,"label":"Alicia","disabled":false},{"id":2,"label":"Anda","disabled":false},{"id":3,"label":"Antequera","disabled":false},{"disabled":false,"label":"Baclayon","id":4},{"label":"Balilihan","id":5,"disabled":false},{"disabled":false,"label":"Batuan","id":6},{"disabled":false,"id":7,"label":"Bien Unido"},{"disabled":false,"id":8,"label":"Bilar"},{"disabled":false,"id":9,"label":"Buenavista"},{"disabled":false,"label":"Calape","id":10},{"disabled":false,"id":11,"label":"Candijay"},{"label":"Carmen","id":12,"disabled":false},{"label":"Catigbian","id":13,"disabled":false},{"disabled":false,"label":"City of Tagbilaran","id":14},{"label":"Clarin","id":15,"disabled":false},{"disabled":false,"label":"Corella","id":16},{"label":"Cortes","id":17,"disabled":false},{"disabled":false,"id":18,"label":"Dagohoy"},{"label":"Danao","id":19,"disabled":false},{"label":"Dauis","id":20,"disabled":false},{"disabled":false,"label":"Dimiao","id":21},{"disabled":false,"label":"Duero","id":22},{"disabled":false,"label":"Garcia Hernandez","id":23},{"id":24,"label":"Getafe","disabled":false},{"disabled":false,"id":25,"label":"Guindulman"},{"id":26,"label":"Inabanga","disabled":false},{"disabled":false,"label":"Jagna","id":27},{"disabled":false,"id":28,"label":"Lila"},{"label":"Loay","id":29,"disabled":false},{"disabled":false,"id":30,"label":"Loboc"},{"label":"Loon","id":31,"disabled":false},{"disabled":false,"id":32,"label":"Mabini"},{"id":33,"label":"Maribojoc","disabled":false},{"disabled":false,"label":"Panglao","id":34},{"label":"Pilar","id":35,"disabled":false},{"label":"President Carlos P. Garcia","id":36,"disabled":false},{"id":37,"label":"Sagbayan","disabled":false},{"label":"San Isidro","id":38,"disabled":false},{"label":"San Miguel","id":39,"disabled":false},{"disabled":false,"label":"Sevilla","id":40},{"disabled":false,"id":41,"label":"Sierra Bullones"},{"disabled":false,"label":"Sikatuna","id":42},{"id":43,"label":"Talibon","disabled":false},{"disabled":false,"label":"Trinidad","id":44},{"id":45,"label":"Tubigon","disabled":false},{"disabled":false,"label":"Ubay","id":46},{"disabled":false,"label":"Valencia","id":47}],"disabled":false},{"disabled":false,"municipalities":[{"label":"Alcantara","id":0,"disabled":false},{"disabled":false,"id":1,"label":"Alcoy"},{"id":2,"label":"Alegria","disabled":false},{"disabled":false,"id":3,"label":"Aloguinsan"},{"disabled":false,"id":4,"label":"Argao"},{"id":5,"label":"Asturias","disabled":false},{"label":"Badian","id":6,"disabled":false},{"label":"Balamban","id":7,"disabled":false},{"id":8,"label":"Bantayan","disabled":false},{"id":9,"label":"Barili","disabled":false},{"disabled":false,"label":"Boljoon","id":10},{"disabled":false,"label":"Borbon","id":11},{"disabled":false,"id":12,"label":"Carmen"},{"label":"Catmon","id":13,"disabled":false},{"disabled":false,"id":14,"label":"City of Bogo"},{"disabled":false,"id":15,"label":"City of Carcar"},{"id":16,"label":"City of Cebu","disabled":false},{"label":"City of Lapu-Lapu","id":17,"disabled":false},{"id":18,"label":"City of Mandaue","disabled":false},{"disabled":false,"label":"City of Naga","id":19},{"disabled":false,"id":20,"label":"City of Talisay"},{"label":"City of Toledo","id":21,"disabled":false},{"label":"Compostela","id":22,"disabled":false},{"label":"Consolacion","id":23,"disabled":false},{"label":"Cordova","id":24,"disabled":false},{"disabled":false,"id":25,"label":"Daanbantayan"},{"disabled":false,"label":"Dalaguete","id":26},{"label":"Danao City","id":27,"disabled":false},{"id":28,"label":"Dumanjug","disabled":false},{"label":"Ginatilan","id":29,"disabled":false},{"disabled":false,"label":"Liloan","id":30},{"disabled":false,"id":31,"label":"Madridejos"},{"id":32,"label":"Malabuyoc","disabled":false},{"label":"Medellin","id":33,"disabled":false},{"disabled":false,"label":"Minglanilla","id":34},{"id":35,"label":"Moalboal","disabled":false},{"disabled":false,"label":"Oslob","id":36},{"label":"Pilar","id":37,"disabled":false},{"id":38,"label":"Pinamungajan","disabled":false},{"id":39,"label":"Poro","disabled":false},{"label":"Ronda","id":40,"disabled":false},{"disabled":false,"label":"Samboan","id":41},{"id":42,"label":"San Fernando","disabled":false},{"id":43,"label":"San Francisco","disabled":false},{"label":"San Remigio","id":44,"disabled":false},{"disabled":false,"label":"Santa Fe","id":45},{"id":46,"label":"Santander","disabled":false},{"label":"Sibonga","id":47,"disabled":false},{"label":"Sogod","id":48,"disabled":false},{"disabled":false,"label":"Tabogon","id":49},{"id":50,"label":"Tabuelan","disabled":false},{"disabled":false,"id":51,"label":"Tuburan"},{"disabled":false,"label":"Tudela","id":52}],"id":1,"label":"Cebu"}],"media":{"description":"Agro-Climatic Advisory Portal-Bicol (ACAP-BICOL) serves as a centralized hub for the development of Climate Information Services (CIS) in the Bicol Region. It contains relevant weather and climate information which can be used in developing tailored advisories and crop recommendations.","url":"https://firebasestorage.googleapis.com/v0/b/amia-cis-dev.appspot.com/o/media%2Fimages%2Fopengraph%2F1200x600%2Fog_home_1200.png?alt=media&token=51f9241c-45da-456e-9906-677c2f8fe93a","path":"https://acapcentralvisayas.github.io"}},"__N_SSG":true}